<?xml version='1.0' encoding='UTF-8'?>
<kml xmlns='http://www.opengis.net/kml/2.2'>
	<Document>
		<name>Places in London</name>
		<Placemark>
			<name>Imperial Court</name>
			<styleUrl>#icon-1197-nodesc</styleUrl>
			<ExtendedData>
			</ExtendedData>
			<Point>
				<coordinates>-0.16418669999995927,51.5349535,0.0</coordinates>
			</Point>
		</Placemark>
		<Placemark>
			<name>Camden Market</name>
			<styleUrl>#icon-503-DB4436-nodesc</styleUrl>
			<ExtendedData>
			</ExtendedData>
			<Point>
				<coordinates>-0.14304459999993924,51.5400815,0.0</coordinates>
			</Point>
		</Placemark>
		<Placemark>
			<name>The British Museum</name>
			<styleUrl>#icon-503-DB4436-nodesc</styleUrl>
			<ExtendedData>
			</ExtendedData>
			<Point>
				<coordinates>-0.12695659999997133,51.5194133,0.0</coordinates>
			</Point>
		</Placemark>
		<Placemark>
			<name>Tottenham Court Road</name>
			<styleUrl>#icon-503-DB4436-nodesc</styleUrl>
			<ExtendedData>
			</ExtendedData>
			<Point>
				<coordinates>-0.13443119999999453,51.5207183,0.0</coordinates>
			</Point>
		</Placemark>
		<Placemark>
			<name>Churchill War Rooms</name>
			<styleUrl>#icon-503-DB4436-nodesc</styleUrl>
			<ExtendedData>
			</ExtendedData>
			<Point>
				<coordinates>-0.12920499999995627,51.5022184,0.0</coordinates>
			</Point>
		</Placemark>
		<Placemark>
			<name>King Charles Street</name>
			<styleUrl>#icon-503-DB4436-nodesc</styleUrl>
			<ExtendedData>
			</ExtendedData>
			<Point>
				<coordinates>-0.12789920000000166,51.5022061,0.0</coordinates>
			</Point>
		</Placemark>
		<Placemark>
			<name>Baker Street</name>
			<styleUrl>#icon-503-DB4436-nodesc</styleUrl>
			<ExtendedData>
			</ExtendedData>
			<Point>
				<coordinates>-0.15699100000006183,51.5209203,0.0</coordinates>
			</Point>
		</Placemark>
		<Placemark>
			<name>Madame Tussauds London</name>
			<styleUrl>#icon-503-DB4436-nodesc</styleUrl>
			<ExtendedData>
			</ExtendedData>
			<Point>
				<coordinates>-0.15496710000002167,51.52289010000001,0.0</coordinates>
			</Point>
		</Placemark>
		<Placemark>
			<name>Buckingham Palace</name>
			<styleUrl>#icon-503-DB4436-nodesc</styleUrl>
			<ExtendedData>
			</ExtendedData>
			<Point>
				<coordinates>-0.1418899999999894,51.501364,0.0</coordinates>
			</Point>
		</Placemark>
		<Placemark>
			<name>St James's Park</name>
			<styleUrl>#icon-503-DB4436-nodesc</styleUrl>
			<ExtendedData>
			</ExtendedData>
			<Point>
				<coordinates>-0.1348109000000477,51.5024597,0.0</coordinates>
			</Point>
		</Placemark>
		<Placemark>
			<name>Churchill War Rooms</name>
			<styleUrl>#icon-503-DB4436-nodesc</styleUrl>
			<ExtendedData>
			</ExtendedData>
			<Point>
				<coordinates>-0.12920499999995627,51.5022184,0.0</coordinates>
			</Point>
		</Placemark>
		<Placemark>
			<name>Trafalgar Square</name>
			<styleUrl>#icon-503-DB4436-nodesc</styleUrl>
			<ExtendedData>
			</ExtendedData>
			<Point>
				<coordinates>-0.12806899999998222,51.508039,0.0</coordinates>
			</Point>
		</Placemark>
		<Placemark>
			<name>National Portrait Gallery</name>
			<styleUrl>#icon-503-DB4436-nodesc</styleUrl>
			<ExtendedData>
			</ExtendedData>
			<Point>
				<coordinates>-77.0230529,38.8978692,0.0</coordinates>
			</Point>
		</Placemark>
		<Placemark>
			<name>National Gallery of Art</name>
			<styleUrl>#icon-503-DB4436-nodesc</styleUrl>
			<ExtendedData>
			</ExtendedData>
			<Point>
				<coordinates>-77.01996500000001,38.891298,0.0</coordinates>
			</Point>
		</Placemark>
		<Placemark>
			<name>Leicester Square</name>
			<styleUrl>#icon-503-DB4436-nodesc</styleUrl>
			<ExtendedData>
			</ExtendedData>
			<Point>
				<coordinates>-0.1300343000000339,51.51047800000001,0.0</coordinates>
			</Point>
		</Placemark>
		<Placemark>
			<name>Big Ben</name>
			<styleUrl>#icon-503-DB4436-nodesc</styleUrl>
			<ExtendedData>
			</ExtendedData>
			<Point>
				<coordinates>-0.12462540000001356,51.50072919999999,0.0</coordinates>
			</Point>
		</Placemark>
		<Placemark>
			<name>Westminster Abbey</name>
			<styleUrl>#icon-503-DB4436-nodesc</styleUrl>
			<ExtendedData>
			</ExtendedData>
			<Point>
				<coordinates>-0.12730970000006891,51.4992921,0.0</coordinates>
			</Point>
		</Placemark>
		<Placemark>
			<name>London Eye</name>
			<styleUrl>#icon-503-DB4436-nodesc</styleUrl>
			<ExtendedData>
			</ExtendedData>
			<Point>
				<coordinates>-0.11954300000002151,51.503324,0.0</coordinates>
			</Point>
		</Placemark>
		<Placemark>
			<name>Natural History Museum</name>
			<styleUrl>#icon-503-DB4436-nodesc</styleUrl>
			<ExtendedData>
			</ExtendedData>
			<Point>
				<coordinates>-0.17636719999995876,51.49671499999999,0.0</coordinates>
			</Point>
		</Placemark>
		<Placemark>
			<name>Science Museum</name>
			<styleUrl>#icon-503-DB4436-nodesc</styleUrl>
			<ExtendedData>
			</ExtendedData>
			<Point>
				<coordinates>-0.17452349999996386,51.4978095,0.0</coordinates>
			</Point>
		</Placemark>
		<Placemark>
			<name>Victoria and Albert Museum</name>
			<styleUrl>#icon-503-DB4436-nodesc</styleUrl>
			<ExtendedData>
			</ExtendedData>
			<Point>
				<coordinates>-0.17218000000002576,51.4966392,0.0</coordinates>
			</Point>
		</Placemark>
		<Placemark>
			<name>Harrods</name>
			<styleUrl>#icon-503-DB4436-nodesc</styleUrl>
			<ExtendedData>
			</ExtendedData>
			<Point>
				<coordinates>-0.1632343999999648,51.49940549999999,0.0</coordinates>
			</Point>
		</Placemark>
		<Placemark>
			<name>Shakespeare's Globe</name>
			<styleUrl>#icon-503-DB4436-nodesc</styleUrl>
			<ExtendedData>
			</ExtendedData>
			<Point>
				<coordinates>-0.09719399999994494,51.508076,0.0</coordinates>
			</Point>
		</Placemark>
		<Placemark>
			<name>Tate Modern</name>
			<styleUrl>#icon-503-DB4436-nodesc</styleUrl>
			<ExtendedData>
			</ExtendedData>
			<Point>
				<coordinates>-0.09935640000003332,51.50759530000001,0.0</coordinates>
			</Point>
		</Placemark>
		<Placemark>
			<name>Science Museum, Exhibition Road, London, United Kingdom</name>
			<styleUrl>#icon-503-DB4436-nodesc</styleUrl>
			<ExtendedData>
			</ExtendedData>
			<Point>
				<coordinates>-0.17452295869588852,51.49780995514254,0.0</coordinates>
			</Point>
		</Placemark>
		<Style id='icon-1197-nodesc-normal'>
			<IconStyle>
				<scale>1.1</scale>
				<Icon>
					<href>http://www.gstatic.com/mapspro/images/stock/1197-fac-headquarters.png</href>
				</Icon>
			</IconStyle>
			<LabelStyle>
				<scale>0.0</scale>
			</LabelStyle>
			<BalloonStyle>
				<text><![CDATA[<h3>$[name]</h3>]]></text>
			</BalloonStyle>
		</Style>
		<Style id='icon-1197-nodesc-highlight'>
			<IconStyle>
				<scale>1.1</scale>
				<Icon>
					<href>http://www.gstatic.com/mapspro/images/stock/1197-fac-headquarters.png</href>
				</Icon>
			</IconStyle>
			<LabelStyle>
				<scale>1.1</scale>
			</LabelStyle>
			<BalloonStyle>
				<text><![CDATA[<h3>$[name]</h3>]]></text>
			</BalloonStyle>
		</Style>
		<StyleMap id='icon-1197-nodesc'>
			<Pair>
				<key>normal</key>
				<styleUrl>#icon-1197-nodesc-normal</styleUrl>
			</Pair>
			<Pair>
				<key>highlight</key>
				<styleUrl>#icon-1197-nodesc-highlight</styleUrl>
			</Pair>
		</StyleMap>
		<Style id='icon-503-DB4436-nodesc-normal'>
			<IconStyle>
				<color>ff3644DB</color>
				<scale>1.1</scale>
				<Icon>
					<href>http://www.gstatic.com/mapspro/images/stock/503-wht-blank_maps.png</href>
				</Icon>
				<hotSpot x='16' y='31' xunits='pixels' yunits='insetPixels'>
				</hotSpot>
			</IconStyle>
			<LabelStyle>
				<scale>0.0</scale>
			</LabelStyle>
			<BalloonStyle>
				<text><![CDATA[<h3>$[name]</h3>]]></text>
			</BalloonStyle>
		</Style>
		<Style id='icon-503-DB4436-nodesc-highlight'>
			<IconStyle>
				<color>ff3644DB</color>
				<scale>1.1</scale>
				<Icon>
					<href>http://www.gstatic.com/mapspro/images/stock/503-wht-blank_maps.png</href>
				</Icon>
				<hotSpot x='16' y='31' xunits='pixels' yunits='insetPixels'>
				</hotSpot>
			</IconStyle>
			<LabelStyle>
				<scale>1.1</scale>
			</LabelStyle>
			<BalloonStyle>
				<text><![CDATA[<h3>$[name]</h3>]]></text>
			</BalloonStyle>
		</Style>
		<StyleMap id='icon-503-DB4436-nodesc'>
			<Pair>
				<key>normal</key>
				<styleUrl>#icon-503-DB4436-nodesc-normal</styleUrl>
			</Pair>
			<Pair>
				<key>highlight</key>
				<styleUrl>#icon-503-DB4436-nodesc-highlight</styleUrl>
			</Pair>
		</StyleMap>
	</Document>
</kml>